year,month,day,hour,minute,second,I_D,focal_depth,EQ_primary,intensity,country,state,latitude,longitude,region_code,deaths,deaths_description,missing,missing_description,injuries,injuries_description,damage_millions_dollars,damage_description,house_destroyed,house_destroyed_description,house_damaged,house_damaged_description,total_deaths,total_missing,total_injuries,total_damage_million_dollars,total_house_destroyed,total_house_damaged,location_name
2008,1,1,6,32,27.9,7745,6,5.6,0,KYRGYZSTAN,,40.288,72.985,40,0,0,0,0,0,0,0,3,5385,4,0,0,0,0,0,0,5385,0,KYRGYZSTAN:  OSH
2008,1,5,1,56,45.4,7746,66,5.6,0,GUATEMALA,,14.129,-91.479,100,0,0,0,0,0,0,0,1,0,0,0,0,0,0,0,0,0,0,"GUATEMALA:  COLOMBA, FLORES, COSTA CUCA"
2008,1,7,3,12,26.8,7747,12,5.9,0,INDONESIA,,-0.795,134.012,170,0,0,0,0,6,1,0,1,0,0,22,1,0,0,6,0,0,22,"INDONESIA: NEW GUINEA: MANOKWARI,"
2008,1,9,22,24,3.8,7748,10,4.6,0,ALGERIA,,35.616,-0.57,15,1,1,0,0,0,0,0,2,0,0,0,0,1,0,0,0,0,0,ALGERIA:  ORAN
2008,1,12,22,44,47.3,7749,34,5.0,0,BANGLADESH,,22.761,92.333,60,0,0,0,0,0,0,0,1,0,0,0,2,0,0,0,0,0,0,"INDIA-BANGLADESH:  RANGAMATI, BANGLADESH"
2008,1,22,17,14,57.9,7750,20,6.1,0,INDONESIA,,1.011,97.442,170,1,1,0,0,5,1,0,1,0,0,0,0,1,0,5,0,0,0,INDONESIA:  SUMATRA:  NIAS ISLAND:  GUNUNGSITOLI
2008,2,3,7,34,12.1,7764,10,5.9,0,CONGO,,-2.296,28.9,10,38,1,0,0,717,3,0,3,99,2,815,3,38,0,717,0,99,815,CONGO:  BUKAVU
2008,2,6,6,9,40.4,7765,10,4.3,0,INDIA,,23.433,87.111,60,1,1,0,0,50,1,0,2,0,0,0,0,1,0,50,0,0,0,INDIA:  WEST BENGAL
2008,2,9,7,12,5.8,7766,3,5.1,0,MEXICO,,32.456,-115.315,150,0,0,0,0,0,0,0,1,0,0,0,0,0,0,0,0,0,0,MEXICO:  BAJA CALIFORNIA
2008,2,13,20,55,31.5,7767,14,4.9,0,IRAN,,31.73,51.2,140,0,0,0,0,10,1,0,1,0,0,0,0,0,0,10,0,0,70,IRAN:  NASIRABAD
2008,2,14,2,7,46.7,7768,10,4.9,0,RWANDA,,-2.404,28.918,10,1,1,0,0,109,3,0,1,0,0,5,1,1,0,109,0,0,5,RWANDA:  GISENYI
2008,2,15,10,36,19.0,7769,10,5.0,0,LEBANON,,33.327,35.305,140,0,0,0,0,10,1,0,1,0,0,0,1,0,0,10,0,0,0,LEBANON-SYRIA:  BAALBEC
2008,2,20,8,8,30.5,7870,26,7.4,0,INDONESIA,,2.768,95.964,170,3,1,0,0,25,1,0,0,0,0,0,0,3,0,25,0,0,0,INDONESIA:  SUMATERA:  ACEH PROVINCE
2008,2,21,14,16,2.7,7871,7,6.0,8,USA,NV,41.153,-114.867,150,0,0,0,0,3,1,0,2,0,0,720,3,0,0,3,0,0,720,NEVADA:  WELLS
2008,2,25,8,36,33.0,7743,25,6.5,0,INDONESIA,,-2.486,99.972,60,0,0,0,0,0,0,0,1,0,0,0,2,0,0,0,0,0,0,INDONESIA:  SUMATRA:  PADANG
2008,2,27,0,56,47.8,7872,18,4.8,0,UK,,53.403,-0.332,120,0,0,0,0,1,1,0,1,0,0,0,0,0,0,1,0,0,0,UNITED KINGDOM:  ENGLAND:  LINCOLNSHIRE
2008,2,29,4,46,,7873,10,4.3,0,BRAZIL,,-3.7,-40.35,160,0,0,0,0,0,0,0,1,0,0,0,0,0,0,0,0,0,0,BRAZIL:  SOBRAL
2008,3,9,11,10,41.0,7874,10,4.5,0,INDIA,,23.33,70.592,60,0,0,0,0,0,0,0,1,0,0,0,0,0,0,0,0,0,0,INDIA:  GUJARAT
2008,3,20,22,32,57.9,7875,10,7.2,0,CHINA,,35.49,81.467,40,0,0,0,0,0,0,0,3,2200,4,0,0,0,0,0,0,2200,0,CHINA:  XINJIANG PROVINCE
2008,3,29,12,51,24.7,7876,51,5.3,0,PERU,,-12.178,-77.164,160,0,0,0,0,1,1,0,1,5,1,0,0,0,0,1,0,5,0,PERU:  OFF COAST
2008,4,9,12,46,12.7,7800,33,7.3,0,NEW CALEDONIA,,-20.071,168.892,170,0,0,0,0,0,0,0,0,0,0,0,0,0,0,0,0,0,0,NEW CALEDONIA: LOYALTY ISLANDS
2008,4,15,3,3,4.6,8127,33,6.1,0,GUATEMALA,,13.564,-90.599,100,0,0,0,0,0,0,0,1,0,0,0,0,0,0,0,0,0,8,GUATEMALA
2008,4,18,9,36,59.1,7823,14,5.3,0,USA,,38.452,-87.886,150,0,0,0,0,0,0,0,1,0,0,0,1,0,0,0,0,0,0,ILLINOIS:  WEST SALEM
2008,4,26,6,40,10.6,8128,1,5.0,0,USA,,39.52,-119.93,150,0,0,0,0,0,0,0,1,0,0,0,1,0,0,0,0,0,0,NEVADA:  FALLON
2008,4,28,18,33,34.2,8138,32,6.4,0,VANUATU,,-19.941,168.953,170,0,0,0,0,0,0,0,0,0,0,0,0,0,0,0,0,0,0,VANUATU ISLANDS
2008,5,1,0,15,27.4,8129,16,4.5,0,IRAN,,33.86,48.59,140,0,0,0,0,100,1,0,1,0,0,0,0,0,0,100,0,0,0,"IRAN:  LORESTAN, BOROUJERD"
2008,5,7,16,45,20.2,8130,39,6.8,0,JAPAN,,36.158,141.521,30,0,0,0,0,6,1,0,1,0,0,0,0,0,0,6,0,0,0,JAPAN:  HONSHU:  E COAST
2008,5,12,6,28,1.5,7843,19,7.9,9,CHINA,,31.002,103.322,30,87652,4,0,0,374171,4,86000,4,5360000,4,5360000,4,87652,0,374171,86000,5360000,21000000,CHINA:  SICHUAN PROVINCE
2008,5,21,19,23,57.3,8122,10,,0,BRAZIL,,-3.91,-40.44,160,0,0,0,0,0,0,0,1,0,0,0,0,0,0,0,0,0,0,BRAZIL:  ALCANTARAS
2008,5,24,19,20,42.4,7879,9,5.6,0,COLOMBIA,,4.33,-73.764,160,6,1,0,0,0,0,0,1,0,0,0,2,6,0,0,0,0,0,"COLOMBIA:  META, QUETAME"
2008,5,25,8,21,48.7,7881,10,6.0,0,CHINA,,32.57,105.424,30,8,1,0,0,927,3,0,4,400000,4,400000,4,8,0,927,0,400000,0,CHINA:  SICHUAN PROVINCE
2008,5,26,15,1,33.6,8123,13,5.6,0,COSTA RICA,,8.423,-82.968,100,0,0,0,0,0,0,0,1,0,0,0,0,0,0,0,0,0,0,PANAMA-COSTA RICA
2008,5,27,8,37,51.5,8124,10,5.7,0,CHINA,,32.71,105.54,30,0,0,0,0,0,0,0,3,20000,4,20000,4,0,0,0,0,20000,0,CHINA:  SICHUAN PROVINCE
2008,5,29,15,46,0.4,7880,10,6.3,0,ICELAND,,64.004,-21.012,120,0,0,0,0,30,1,0,1,0,0,0,0,0,0,30,0,0,0,ICELAND: REYKJAVIK
2008,6,6,20,2,56.8,8125,4,5.5,0,ALGERIA,,35.883,-0.658,15,1,1,0,0,30,1,0,2,0,2,0,2,1,0,30,0,0,0,ALGERIA:  ORAN
2008,6,6,21,16,33.8,8126,11,3.8,0,INDIA,,24.702,84.964,60,0,0,0,0,2,1,0,1,0,0,0,0,0,0,2,0,0,0,INDIA:  MANPUR
2008,6,8,12,25,29.7,7925,16,6.3,0,GREECE,,37.963,21.525,130,2,1,0,0,240,3,0,3,1156,4,0,0,2,0,240,0,1156,0,"GREECE:  ACHAIA, ILEIA"
2008,6,13,23,43,45.3,7907,8,6.9,0,JAPAN,,39.03,140.881,30,13,1,0,0,357,3,0,3,0,0,614,3,13,0,357,0,0,614,JAPAN:  HONSHU:  TOKYO
2008,7,1,0,17,33.2,8120,33,5.5,0,PERU,,-10.368,-75.512,160,0,0,0,0,45,1,0,1,60,1,25,1,0,0,45,0,60,25,"PERU:  CENTRAL:  OXAPAMPA, HUANCABAMBA"
2008,7,3,23,10,2.0,8121,10,5.0,0,IRAN,,35.5,58.8,140,0,0,0,0,0,0,0,1,0,2,0,2,0,0,0,0,0,0,IRAN:  NE:  KATKAN
2008,7,5,2,12,4.4,8955,633,7.7,0,RUSSIA,,53.882,152.886,50,0,0,0,0,0,0,0,0,0,0,0,0,0,0,0,0,0,0,RUSSIA:  SEA OF OKHOTSK
2008,7,8,9,13,7.4,8163,123,6.2,0,PERU,,-15.986,-71.748,160,1,1,0,0,0,0,0,1,0,0,0,2,1,0,0,0,0,0,PERU:  AREQUIPA
2008,7,19,2,39,28.7,7971,22,6.9,0,JAPAN,,37.552,142.214,30,0,0,0,0,0,0,0,0,0,0,0,0,0,0,0,0,0,0,JAPAN:  OFF EAST COAST OF HONSHU ISLAND
2008,7,23,15,26,19.9,8164,108,6.8,0,JAPAN,,39.802,141.464,30,1,1,0,0,200,3,0,2,90,2,90,2,1,0,200,0,0,90,JAPAN:  HONSHU:  N
2008,7,24,7,9,30.0,8165,10,5.6,0,CHINA,,32.747,105.542,30,1,1,0,0,17,1,0,3,1200,4,1200,4,1,0,17,0,1200,0,CHINA:  SICHUAN PROVINCE
2008,7,29,18,42,15.7,8166,15,5.4,6,USA,CA,33.953,-117.761,150,0,0,0,0,8,1,0,1,0,0,0,1,0,0,8,0,0,0,CALIFORNIA:  LOS ANGELES
2008,8,1,8,32,43.0,8167,7,5.7,0,CHINA,,32.036,104.722,30,0,0,0,0,231,3,0,2,540,3,540,3,0,0,231,0,540,2450,CHINA:  SICHUAN PROVINCE
2008,8,5,9,49,17.2,8168,6,6.0,0,CHINA,,32.756,105.494,30,4,1,0,0,29,1,0,1,0,0,0,0,4,0,29,0,0,0,CHINA:  SICHUAN PROVINCE
2008,8,11,7,19,26.4,8169,13,5.2,0,VENEZUELA,,10.514,-64.171,160,0,0,0,0,0,0,0,1,0,0,50,1,0,0,0,0,0,50,VENEZUELA:  CARIACO-CUMANA
2008,8,15,10,25,16.5,8170,10,6.0,0,PHILIPPINES,,12.897,124.319,170,0,0,0,0,0,0,0,1,0,0,0,0,0,0,0,0,0,0,PHILIPPINES:  LUZON:  LEGASPI
2008,8,19,21,35,17.2,8171,46,5.0,0,CHINA,,25.051,97.919,30,0,0,0,0,0,0,0,3,5,1,5,1,0,0,0,0,5,2420,CHINA:  YUNNAN PROVINCE
2008,8,21,12,24,29.5,8172,1,6.0,0,CHINA,,25.044,97.684,30,5,1,0,0,127,3,0,3,0,0,0,0,5,0,127,0,0,0,CHINA:  YUNNAN PROVINCE
2008,8,25,11,25,19.3,8173,32,5.5,0,NEW ZEALAND,,-39.715,176.851,170,0,0,0,0,0,0,0,2,0,0,0,0,0,0,0,0,0,0,NEW ZEALAND:  NORTH ISLAND
2008,8,25,13,21,58.8,8174,12,6.7,8,CHINA,,30.901,83.52,40,0,0,0,0,0,0,0,2,0,0,700,3,0,0,0,0,0,700,CHINA:  TIBET (XIZANG PROVINCE)
2008,8,26,8,7,8.5,10114,10,5.0,0,ATLANTIC OCEAN,,-52.533,26.417,70,0,0,0,0,0,0,0,0,0,0,0,0,0,0,0,0,0,0,ATLANTIC OCEAN:  SOUTH
2008,8,27,1,35,32.1,8175,16,6.2,8,RUSSIA,,51.607,104.158,40,0,0,0,0,0,0,0,1,0,0,0,0,0,0,0,0,0,0,RUSSIA:  LAKE BAYKAL
2008,8,30,8,30,54.0,8132,17,5.9,0,CHINA,,26.272,101.937,30,43,1,0,0,589,3,0,4,392000,4,392000,4,43,0,589,0,392000,0,CHINA:  SICHUAN PROVINCE
2008,9,3,2,22,47.0,8176,6,4.1,0,TURKEY,,37.507,38.503,140,0,0,0,0,0,0,0,1,0,0,0,0,0,0,0,0,0,0,TURKEY:  ADIYAMAN
2008,9,9,3,7,27.5,8185,25,5.4,0,INDONESIA,,-3.935,103.058,60,2,1,0,0,0,0,0,2,0,0,0,0,2,0,0,0,0,113,INDONESIA:  SUMATRA:  SOUTHERN
2008,9,10,11,0,34.0,8133,12,6.1,0,IRAN,,26.743,55.828,140,7,1,0,0,45,1,0,3,0,3,0,3,7,0,45,0,0,0,IRAN:  HORMOZGAN PROVINCE
2008,9,11,0,20,50.9,8134,25,6.8,0,JAPAN,,41.892,143.754,30,0,0,0,0,0,0,0,0,0,0,0,0,0,0,0,0,0,0,JAPAN:  HOKKAIDO
2008,9,16,21,47,14.5,8186,10,5.0,0,INDIA,,17.438,73.915,60,1,1,0,0,20,1,0,3,0,0,0,0,1,0,20,0,0,1500,INDIA:  MAHARASHTRA
2008,10,5,15,52,49.4,8160,27,6.6,0,KYRGYZSTAN,,39.533,73.824,40,74,2,0,0,140,3,0,2,0,2,0,0,74,0,140,0,0,0,KYRGYZSTAN: NURA
2008,10,6,8,30,45.5,8161,12,6.3,0,CHINA,,29.807,90.35,40,9,1,0,0,19,1,0,2,0,3,0,0,9,0,19,0,0,0,CHINA:  TIBET (XIZANG PROVINCE)
2008,10,11,9,6,10.7,8162,16,5.7,0,RUSSIA,,43.372,46.254,40,13,1,0,0,100,2,0,3,0,0,1027,4,13,0,100,0,0,1027,RUSSIA:  CAUCASUS:  CHECHNYA
2008,10,28,23,9,57.6,8177,15,6.4,0,PAKISTAN,,30.639,67.351,60,166,3,0,0,370,3,0,4,3487,4,3487,4,166,0,370,0,3487,4125,PAKISTAN:  QUETTA
2008,10,29,11,32,43.1,8206,14,6.4,0,PAKISTAN,,30.598,67.455,60,0,0,0,0,1,1,0,2,0,2,0,2,0,0,1,0,0,0,PAKISTAN:  ZIARAT
2008,11,10,1,22,2.5,8207,19,6.3,0,CHINA,,37.565,95.833,40,0,0,0,0,3,1,4,2,0,2,0,2,0,0,3,4,0,0,CHINA:  QINGHAI PROVINCE
2008,11,16,17,2,32.7,8191,30,7.3,0,INDONESIA,,1.271,122.091,170,6,1,0,0,77,2,0,3,0,0,1000,3,6,0,77,0,0,1000,INDONESIA:  MINAHASSA PENINSULA
2008,11,19,6,11,20.7,8192,32,6.1,0,PANAMA,,8.267,-82.967,100,0,0,0,0,0,0,0,1,0,0,0,0,0,0,0,0,0,0,"PANAMA:  PASO CANOA, DAVID, PUERTO ARMUELLES"
2008,11,22,22,27,55.1,8208,0,4.1,0,CZECH REPUBLIC,,49.914,18.455,110,2,1,0,0,3,1,0,1,0,0,0,0,2,0,3,0,0,0,CZECH REPUBLIC:  KARVINA
2008,12,7,13,36,21.3,8253,15,5.4,0,IRAN,,26.99,55.8,140,0,0,0,0,5,1,0,1,0,0,0,0,0,0,5,0,0,0,IRAN:  S
2008,12,9,18,53,11.1,8254,25,4.5,0,CHINA,,32.518,105.395,30,2,1,0,0,3,1,0,0,0,0,0,0,2,0,3,0,0,0,CHINA:  SICHUAN PROVINCE
2008,12,10,10,53,50.0,8255,10,4.1,0,ARGENTINA,,-32.938,-69.259,160,0,0,0,0,0,0,0,1,0,0,0,0,0,0,0,0,0,0,ARGENTINA:  POTRERILLOS
2008,12,25,20,20,51.5,8256,35,4.7,0,MYANMAR (BURMA),,23.97,97.569,60,0,0,0,0,19,1,0,3,30,1,30,1,0,0,19,0,30,5400,MYANMAR (BURMA)
2008,12,25,20,20,51.5,9834,35,4.8,0,CHINA,,23.97,97.569,30,0,0,0,0,19,1,0,2,30,1,5400,4,0,0,19,0,30,5400,CHINA:  YUNNAN PROVINCE:  SIMAO
2008,12,29,3,37,41.7,8257,158,5.8,0,AFGHANISTAN,,36.401,71.075,40,0,0,0,0,0,0,0,1,0,0,0,0,0,0,0,0,0,0,"AFGHANISTAN; PAKISTAN:  MANSEHRA, SHANGLA"
