year,month,day,hour,minute,second,I_D,focal_depth,EQ_primary,intensity,country,state,latitude,longitude,region_code,deaths,deaths_description,missing,missing_description,injuries,injuries_description,damage_millions_dollars,damage_description,house_destroyed,house_destroyed_description,house_damaged,house_damaged_description,total_deaths,total_missing,total_injuries,total_damage_million_dollars,total_house_destroyed,total_house_damaged,location_name
2009,1,3,19,43,50.6,8204,17,7.6,0,INDONESIA,,-0.414,132.885,170,5,1,0,0,250,3,0,3,0,0,840,3,5,0,250,0,0,840,PAPUA NEW GUINEA:  NEAR NORTH COAST
2009,1,3,22,33,40.2,8211,23,7.3,0,INDONESIA,,-0.691,133.305,170,0,0,0,0,0,0,0,0,0,0,0,0,0,0,0,0,0,0,PAPUA NEW GUINEA:  NEAR NORTH COAST
2009,1,8,19,21,35.6,8210,14,6.1,0,COSTA RICA,,10.165,-84.197,100,23,1,17,1,100,2,0,3,518,3,0,0,23,17,100,0,518,0,COSTA RICA:  LA PAZ
2009,1,15,17,49,39.0,8250,36,7.4,0,RUSSIA,,46.857,155.154,50,0,0,0,0,0,0,0,0,0,0,0,0,0,0,0,0,0,0,RUSSIA:  KURIL ISLANDS
2009,1,21,18,17,3.3,8258,10,4.6,0,PERU,,-11.779,-75.626,160,0,0,0,0,0,0,0,2,50,1,500,3,0,0,0,0,50,500,PERU:  PACCHA
2009,2,11,17,34,50.8,8251,22,7.2,0,INDONESIA,,3.884,126.397,170,0,0,0,0,64,2,0,2,0,0,597,3,0,0,64,0,0,597,INDONESIA:  KEPULAUAN TALAUD
2009,2,20,3,48,48.2,8278,10,5.4,0,PAKISTAN,,34.204,73.899,60,0,0,0,0,44,1,0,1,0,0,0,0,0,0,44,0,0,0,PAKISTAN; INDIA:  KASHMIR
2009,2,20,10,2,29.1,8279,17,5.5,0,CHINA,,40.657,78.692,40,0,0,0,0,0,0,0,3,5613,4,331,3,0,0,0,0,331,5613,CHINA:  XINJIANG PROVINCE
2009,3,19,18,17,40.9,8259,34,7.6,0,TONGA,,-23.046,-174.659,170,0,0,0,0,0,0,0,0,0,0,0,0,0,0,0,0,0,0,TONGA ISLANDS
2009,3,26,4,44,11.6,8298,10,4.1,0,INDIA,,22.399,85.903,60,0,0,0,0,5,1,0,1,0,0,0,0,0,0,5,0,0,0,INDIA:  CHAIBASA
2009,3,31,17,50,34.1,8299,36,4.4,0,NICARAGUA,,13.452,-86.06,100,0,0,0,0,0,0,0,1,3,1,10,1,0,0,0,0,3,10,NICARAGUA:  SAN JUAN DEL RIO COCO
2009,4,6,1,32,39.0,8264,9,6.3,0,ITALY,,42.334,13.334,130,309,3,0,0,1500,4,2500,4,15000,4,0,0,309,0,1500,2500,15000,0,ITALY:  L'AQUILA
2009,4,7,17,47,37.0,8277,15,5.5,0,ITALY,,42.275,13.464,130,1,1,0,0,0,0,0,1,0,0,0,1,1,0,0,0,0,0,ITALY:  L'AQUILA
2009,4,9,1,46,58.2,8317,44,5.2,0,INDIA,,27.143,70.749,60,0,0,0,0,6,1,0,2,0,0,0,0,0,0,6,0,0,0,INDIA:  JAISALMER
2009,4,16,21,27,51.3,8318,6,5.4,0,AFGHANISTAN,,34.185,70.076,40,19,1,0,0,51,2,0,2,200,3,200,3,19,0,51,0,200,0,AFGHANISTAN:  NANGARHAR
2009,5,17,19,50,6.2,8379,10,4.6,0,SAUDI ARABIA,,25.212,37.597,140,0,0,0,0,0,0,0,1,0,2,0,0,0,0,0,0,0,0,SAUDI ARABIA: WESTERN
2009,5,19,17,35,0.6,8380,2,5.7,0,SAUDI ARABIA,,25.292,37.744,140,0,0,0,0,7,1,0,0,0,0,0,0,0,0,7,0,0,0,SAUDI ARABIA: WESTERN
2009,5,19,19,29,48.9,8381,21,4.9,0,INDIA,,33.198,75.787,60,0,0,0,0,0,0,0,1,0,0,0,0,0,0,0,0,0,100,INDIA:  KASHMIR
2009,5,24,16,17,50.8,8382,0,5.3,0,MACEDONIA,,41.303,22.714,130,0,0,0,0,0,0,0,2,0,0,0,0,0,0,0,0,0,0,BALKANS NW:  MACEDONIA
2009,5,28,8,24,45.0,8297,10,7.3,0,HONDURAS,,16.72,-86.236,90,7,1,0,0,40,1,0,2,135,3,25,1,7,0,40,0,135,25,HONDURAS:  NORTHERN; BELIZE
2009,5,29,6,20,14.6,8384,13,5.7,0,VANUATU,,-17.026,168.329,170,0,0,0,0,10,1,0,1,0,2,0,2,0,0,10,0,0,0,VANUATU ISLANDS:  TONGOA
2009,6,2,2,17,3.5,8385,15,6.3,0,VANUATU,,-17.757,167.949,170,0,0,0,0,4,1,0,1,0,0,0,0,0,0,4,0,0,0,VANUATU ISLANDS:  TONGOA
2009,6,13,17,17,38.2,8383,15,5.4,0,KAZAKHSTAN,,44.724,78.864,40,1,1,0,0,0,0,0,1,0,0,0,2,1,0,0,0,0,0,KAZAKHSTAN:  TEKELI
2009,7,4,6,49,35.5,8388,38,6.0,5,PANAMA,,9.59,-78.966,100,0,0,0,0,32,1,0,1,0,0,0,0,0,0,32,0,0,10,PANAMA: PANAMA CITY
2009,7,9,11,19,16.2,8389,7,5.7,0,CHINA,,25.632,101.095,30,0,0,0,0,336,3,0,3,0,0,0,0,0,0,336,0,0,0,CHINA:  YUNNAN PROVINCE:  YAOAN COUNTY
2009,7,15,9,22,29.0,8357,12,7.8,0,NEW ZEALAND,,-45.762,166.562,170,0,0,0,0,0,0,0,1,0,0,0,0,0,0,0,0,0,0,NEW ZEALAND:  OFF WEST COAST OF SOUTH ISLAND
2009,7,24,3,11,56.8,8390,13,5.8,0,CHINA,,31.158,85.902,40,0,0,0,0,0,0,0,1,6,1,6,1,0,0,0,0,6,0,CHINA: TIBET (XIZANG PROVINCE):   GYUNGCAN
2009,8,8,13,26,17.5,8492,10,3.4,0,CHINA,,29.358,105.438,30,2,1,0,0,1,1,0,2,440,3,440,3,2,0,1,0,440,0,CHINA:  CHONGQING PROVINCE:  RONGCHANG
2009,8,10,19,55,35.6,8378,5,7.5,0,INDIA,,14.099,92.888,60,0,0,0,0,0,0,0,0,0,0,0,0,0,0,0,0,0,0,INDIA:  ANDAMAN I
2009,8,10,20,7,9.1,8377,40,6.4,0,JAPAN,,34.743,138.264,30,1,1,0,0,123,3,0,3,0,0,5192,4,1,0,123,0,0,5192,JAPAN:  HONSHU:  S COAST
2009,8,16,7,38,21.7,8472,20,6.7,0,INDONESIA,,-1.479,99.49,60,0,0,0,0,9,1,0,0,0,0,0,0,0,0,9,0,0,0,INDONESIA:  SUMATRA:  PADANG
2009,8,28,1,52,6.6,8512,13,6.2,0,CHINA,,37.696,95.718,40,0,0,0,0,0,0,0,1,0,0,0,0,0,0,0,0,0,30,CHINA:  QINGHAI PROVINCE
2009,8,30,19,27,48.8,8513,82,5.2,0,MYANMAR (BURMA),,25.28,95.101,60,0,0,0,0,0,0,0,1,0,0,0,0,0,0,0,0,0,0,MYANMAR (BURMA);  INDIA:  SIBSAGAR
2009,9,2,7,55,1.0,8386,46,7.0,0,INDONESIA,,-7.782,107.297,170,81,2,0,0,1297,3,0,3,0,0,0,0,81,0,1297,0,0,54000,INDONESIA:  JAVA
2009,9,6,22,41,37.3,8532,15,6.0,0,GEORGIA,,42.66,43.443,40,0,0,0,0,1,1,0,2,0,0,0,0,0,0,1,0,0,1000,GEORGIA:  NORTHWESTERN
2009,9,12,20,6,24.6,8387,10,6.3,0,VENEZUELA,,10.705,-67.92,160,0,0,0,0,18,1,0,1,0,0,17,1,0,0,18,0,0,17,VENEZUELA:  CARABOBO
2009,9,18,11,53,48.0,8533,10,5.7,0,PHILIPPINES,,6.513,124.715,170,0,0,0,0,91,2,0,1,0,0,0,0,0,0,91,0,0,76,"PHILIPPINES:  COTABATO, SULTAN KUDARAT"
2009,9,18,23,6,57.7,8534,79,5.7,0,INDONESIA,,-9.138,115.593,170,0,0,0,0,7,1,0,1,0,0,0,2,0,0,7,0,0,0,INDONESIA:  BALI:  DENPASAR
2009,9,21,8,53,5.9,8392,14,6.1,0,BHUTAN,,27.332,91.437,60,11,1,0,0,0,0,0,3,0,3,0,3,11,0,0,0,0,0,BHUTAN:  TASHIGANG
2009,9,22,8,20,41.0,8535,0,3.1,0,AUSTRALIA,,-38.28,145.25,170,0,0,0,0,0,0,0,1,0,0,0,0,0,0,0,0,0,0,AUSTRALIA:  MORNINGTON
2009,9,29,17,48,10.9,8408,18,8.1,0,SAMOA,,-15.489,-172.095,170,0,0,0,0,0,0,0,0,0,0,0,0,192,0,7,285,0,0,SAMOA ISLANDS
2009,9,30,10,16,9.2,8409,81,7.5,0,INDONESIA,,-0.72,99.867,60,1117,4,0,0,1214,4,2200,4,0,3,181665,4,1117,0,1214,2200,0,181665,INDONESIA:  SUMATRA:  PADANG
2009,10,1,1,52,27.3,8552,10,6.6,0,INDONESIA,,-2.515,101.501,170,3,1,0,0,0,0,10,3,0,3,0,3,3,0,0,10,0,0,INDONESIA:  SUMATRA:  SOUTHERN:  KERINCI
2009,10,7,22,3,14.4,8410,45,7.6,0,VANUATU,,-13.006,166.51,170,0,0,0,0,0,0,0,0,0,0,0,0,0,0,0,0,0,0,VANUATU ISLANDS
2009,10,7,22,18,51.2,8572,35,7.8,0,SOLOMON ISLANDS,,-12.517,166.382,170,0,0,0,0,0,0,0,0,0,0,0,0,0,0,0,0,0,0,SOLOMON ISLANDS:  SANTA CRUZ ISLANDS
2009,10,9,18,11,39.9,8573,35,5.4,0,ECUADOR,,-0.962,-77.817,160,0,0,0,0,0,0,0,1,0,0,0,0,0,0,0,0,0,0,ECUADOR:  TENA
2009,10,22,19,51,27.5,8574,18,6.1,0,AFGHANISTAN,,36.517,70.95,40,5,1,0,0,0,0,0,1,0,0,0,0,5,0,0,0,0,0,AFGHANISTAN:  HINDU KUSH
2009,10,29,17,0,38.6,8772,26,5.3,0,BHUTAN,,27.262,91.417,60,0,0,0,0,0,0,0,2,1,1,1,1,0,0,0,0,1,116,"BHUTAN:  MONGAR, PEMAGATSEL, TASHIGANG"
2009,11,1,21,7,20.6,8431,25,4.9,0,CHINA,,25.962,100.825,30,0,0,0,0,28,1,0,0,1000,3,1000,3,0,0,28,0,1000,30000,CHINA:  YUNNAN PROVINCE
2009,11,3,23,26,52.0,8430,14,5.1,0,IRAN,,27.334,56.202,140,0,0,0,0,269,3,0,1,0,0,0,0,0,0,269,0,0,0,IRAN:  BANDAR ABBAS
2009,11,8,19,41,43.3,8451,18,6.6,0,INDONESIA,,-8.207,118.631,170,2,1,0,0,200,3,2,2,0,0,0,0,2,0,200,2,0,0,INDONESIA:  SUMABAWA:  BIMA
2009,11,27,8,15,53.3,8592,7,5.4,0,VENEZUELA,,10.434,-69.715,160,0,0,0,0,0,0,0,1,0,0,0,0,0,0,0,0,0,0,VENEZUELA:  SIQUISIQUE
2009,12,6,21,51,59.8,8792,2,3.5,0,SOUTH AFRICA,,-26.414,27.494,10,2,1,0,0,3,1,0,0,0,0,0,0,2,0,3,0,0,0,SOUTH AFRICA:  CARLETONVILLE
2009,12,8,3,8,57.2,8793,8,5.9,0,MALAWI,,-9.948,33.878,10,1,1,0,0,15,1,0,3,0,0,0,0,1,0,15,0,0,3000,MALAWI:  KARONGA
2009,12,12,11,51,25.7,8794,10,5.1,0,INDIA,,17.109,73.767,60,0,0,0,0,0,0,0,1,0,0,0,0,0,0,0,0,0,0,INDIA:  MAHARASHTRA:  SATARA
2009,12,17,23,45,36.4,8795,7,4.9,0,JAPAN,,34.921,139.261,30,0,0,0,0,7,1,0,1,0,0,0,0,0,0,7,0,0,20,JAPAN:  HONSHU:  ITO
2009,12,19,13,2,17.0,8652,57,6.4,0,TAIWAN,,23.796,121.605,30,0,0,0,0,14,1,0,1,0,0,0,1,0,0,14,0,0,0,TAIWAN:  HUALIEN
2009,12,19,23,19,15.5,8632,6,6.0,0,MALAWI,,-10.108,33.818,10,3,1,0,0,250,3,0,3,1111,4,1111,4,3,0,250,0,1111,3565,MALAWI:  KARONGA
2009,12,30,18,48,57.7,8812,9,5.9,0,MEXICO,,32.437,-115.165,150,0,0,0,0,0,0,0,1,0,0,0,0,0,0,0,0,0,0,MEXICO:  MEXICALI
2009,12,31,9,57,29.7,8813,10,5.2,0,BHUTAN,,27.319,91.51,60,0,0,0,0,2,1,0,2,0,0,0,0,0,0,2,0,0,700,BHUTAN:  DAMETSI
