year,month,day,hour,minute,second,focal_depth,EQ_primary,intensity,state,location_name,latitude,longitude,region_code,deaths,deaths_description,missing,missing_description,injuries,injuries_description,damage_millions_dollars,damage_description,house_destroyed,house_destroyed_description,house_damaged,house_damaged_description,total_deaths,total_missing,total_injuries,total_damage_million_dollars,total_house_destroyed,total_house_damaged
2000,2,2,22,58,1,33,5.3,0,,"IRAN:  BARDASKAN, KASHMAR",35.288,58.218,140,1,1,0,0,15,1,0,2,100,2,100,2,1,0,15,0,100,300
2002,2,17,13,3,52,33,5.4,0,,IRAN:  BAGHAN,28.093,51.755,140,1,1,0,0,30,1,0,2,0,0,0,0,1,0,30,0,0,0
2002,4,24,19,48,7,33,5.4,0,,IRAN:  WESTERN:  KERMANSHAH,34.642,47.4,140,2,1,0,0,56,2,0,4,0,4,0,4,2,0,56,0,0,0
2002,6,22,2,58,21,10,6.5,8,,IRAN:  AB GARM-ABHAR-AVAJ-SHIRIN SU,35.626,49.047,140,261,3,0,0,1300,4,300,4,0,4,0,4,261,0,1300,300,4,0
2002,9,2,1,0,3,10,5.2,0,,"IRAN: KAK, RAZAN, SIZAN",35.701,48.838,140,0,0,0,0,0,0,0,1,0,0,0,0,0,0,0,0,0,0
2002,9,25,22,28,11,10,5.6,0,,IRAN:  MASJED-E SOLEYMAN,31.995,49.329,140,0,0,0,0,5,1,0,2,0,0,0,0,0,0,5,0,0,0
2002,12,24,17,3,2,33,5.2,0,,IRAN:  KERMANSHAH,34.594,47.454,140,0,0,0,0,15,1,0,3,3000,4,3000,4,0,0,15,0,3000,0
2003,1,11,17,45,30,33,5.2,0,,"IRAN:  KAZERUN, NURABAD",29.59,51.474,140,0,0,0,0,0,2,0,3,650,3,650,3,0,0,0,0,650,1350
2003,7,3,14,59,32,41,5.2,0,,"IRAN:  NORTHEASTERN: YAKHAK, BASHIRABAD, BUTEHGAZ",35.476,60.784,140,0,0,0,0,0,0,0,1,0,0,0,0,0,0,0,0,0,90
2003,7,10,17,6,37,10,5.8,0,,IRAN:  SOUTHERN: GAJJIABAD,28.355,54.169,140,1,1,0,0,25,1,0,3,3500,4,3500,4,1,0,25,0,3500,0
2003,12,11,16,28,17,33,5.0,0,,IRAN:  WESTERN:  MASJED-E- SOLEYMAN,31.953,49.209,140,0,0,0,0,5,1,0,1,2,1,2,1,0,0,5,0,1,0
2003,12,26,1,56,52,10,6.6,9,,"IRAN:  SOUTHEASTERN:  BAM, BARAVAT",28.995,58.311,140,31000,4,0,0,30000,4,32,4,0,4,0,4,31000,0,30000,32,0,0
2004,1,14,16,58,48,12,5.2,0,,IRAN:  SOUTHERN:  FIRUZABAD,27.695,52.397,140,0,0,0,0,0,0,0,1,0,0,0,0,0,0,0,0,0,0
2004,5,8,4,39,25,67,5.0,0,,IRAN:  KAZERUN,29.881,51.474,140,0,0,0,0,0,0,0,1,4,1,4,1,0,0,0,0,4,6
2004,5,28,12,38,44,17,6.3,0,,"IRAN:  MAZANDARAN, QAZVIN, TEHRAN",36.29,51.61,140,35,1,0,0,400,3,165,4,0,0,0,0,35,0,400,165,0,0
2004,10,7,21,46,20,35,5.6,0,,IRAN:  GOLESTAN,37.125,54.477,140,0,0,0,0,60,2,0,0,0,0,0,0,0,0,60,0,0,0
2004,11,19,23,49,37,37,4.8,0,,IRAN:  W,32.023,48.836,140,0,0,0,0,0,0,0,1,0,0,0,0,0,0,0,0,0,0
2004,11,22,4,1,30,36,5.0,0,,"IRAN:  KHORRAMABAD, POL-E DOKHTAR",33.297,47.977,140,0,0,0,0,0,2,0,1,0,1,0,1,0,0,0,0,0,0
2005,1,10,18,47,30,32,5.4,0,,IRAN:  GORGAN,37.103,54.574,140,0,0,0,0,110,3,0,0,0,0,0,0,0,0,110,0,0,0
2005,2,22,2,25,22,14,6.4,0,,IRAN:  KERMAN PROVINCE:  ZARAND,30.754,56.816,140,612,3,0,0,1411,4,0,4,8000,4,8000,4,612,0,1411,0,8000,0
2005,3,13,3,31,23,54,6.0,0,,IRAN:  SARAVAN,27.095,61.887,140,0,0,0,0,0,0,0,1,0,0,0,0,0,0,0,0,0,0
2005,8,9,5,9,20,10,5.1,0,,IRAN:  FIRUZABAD,28.85,52.56,140,0,0,0,0,0,0,0,1,0,0,0,0,0,0,0,0,0,0
2005,11,27,10,22,19,10,6.0,0,,"IRAN:  QESHM, ZIRANG",26.774,55.858,140,13,1,0,0,100,2,0,2,0,0,0,0,13,0,100,0,0,0
2006,2,28,7,31,2,18,6.0,0,,IRAN:  SOUTHERN,28.12,56.865,140,0,0,0,0,6,1,0,2,0,3,0,3,0,0,6,0,0,0
2006,3,25,7,28,57,18,5.9,0,,IRAN:  SOUTHERN,27.574,55.685,140,1,1,0,0,1,1,0,1,0,0,0,0,1,0,1,0,0,0
2006,3,31,1,17,0,7,6.1,0,,"IRAN:  WESTERN:  BORUJERD, DORUD",33.5,48.78,140,70,2,0,0,1300,4,0,3,0,3,0,3,70,0,1300,0,0,0
2006,5,7,6,20,53,14,4.1,0,,IRAN:  ZARAND,30.79,56.7,140,0,0,0,0,70,2,0,1,0,1,0,1,0,0,70,0,0,0
2006,6,3,7,15,35,5,5.1,0,,IRAN:  SOUTHERN:  QESHM,26.759,55.843,140,2,1,0,0,4,1,0,1,0,2,0,2,2,0,4,0,0,0
2007,3,6,22,32,6,16,4.7,0,,IRAN:  WESTERN:  DORUD,33.49,48.93,140,0,0,0,0,35,1,0,1,0,0,0,0,0,0,35,0,0,0
2007,6,18,14,29,48,5,5.5,0,,IRAN:  QOM,34.437,50.833,140,0,0,0,0,0,0,0,1,0,2,0,2,0,0,0,0,0,0
2007,8,25,4,24,21,10,5.0,0,,"IRAN:  HADJI ABAD, ORZUIYEH",28.154,56.652,140,0,0,0,0,4,1,0,0,0,0,0,0,0,0,4,0,0,0
2007,11,20,5,20,3,7,4.8,0,,"IRAN:  WESTERN:  QAL' EH-YE TOL, KHUZESTAN",31.68,49.93,140,0,0,0,0,30,1,0,1,0,1,0,1,0,0,30,0,0,0
2008,2,13,20,55,31,14,4.9,0,,IRAN:  NASIRABAD,31.73,51.2,140,0,0,0,0,10,1,0,1,0,0,0,0,0,0,10,0,0,70
2008,5,1,0,15,27,16,4.5,0,,"IRAN:  LORESTAN, BOROUJERD",33.86,48.59,140,0,0,0,0,100,1,0,1,0,0,0,0,0,0,100,0,0,0
2008,7,3,23,10,2,10,5.0,0,,IRAN:  NE:  KATKAN,35.5,58.8,140,0,0,0,0,0,0,0,1,0,2,0,2,0,0,0,0,0,0
2008,9,10,11,0,34,12,6.1,0,,IRAN:  HORMOZGAN PROVINCE,26.743,55.828,140,7,1,0,0,45,1,0,3,0,3,0,3,7,0,45,0,0,0
2008,12,7,13,36,21,15,5.4,0,,IRAN:  S,26.99,55.8,140,0,0,0,0,5,1,0,1,0,0,0,0,0,0,5,0,0,0
2009,11,3,23,26,52,14,5.1,0,,IRAN:  BANDAR ABBAS,27.334,56.202,140,0,0,0,0,269,3,0,1,0,0,0,0,0,0,269,0,0,0
2010,1,16,20,23,37,5,5.0,0,,IRAN:  KHUZESTAN:  ARRJAN,32.45,48.3,140,0,0,0,0,0,0,0,2,0,0,0,0,0,0,0,0,0,150
2010,7,20,19,38,9,10,5.8,0,,IRAN:  FARSINAJ,27.022,53.861,140,1,1,0,0,32,1,0,2,0,0,0,3,1,0,32,0,0,0
2010,7,30,13,50,13,24,5.4,0,,IRAN:  TORBET-I-HEYDARIYEH,35.217,59.308,140,0,0,0,0,274,3,0,3,0,0,0,0,0,0,274,0,0,0
2010,8,27,19,23,49,7,5.7,0,,IRAN:  DAMGHAN-TORUD,35.49,54.47,140,3,1,0,0,200,3,0,3,700,3,0,0,3,0,200,0,700,0
2010,9,27,11,22,46,27,5.8,0,,IRAN:  SHIRAZ,29.647,51.665,140,1,1,0,0,3,1,0,1,0,1,0,0,1,0,3,0,0,0
2010,11,6,3,52,20,5,4.9,0,,IRAN:  DORUD-RAZAN,33.37,48.94,140,0,0,0,0,104,3,0,1,0,0,0,2,0,0,104,0,0,0
2010,12,20,18,41,59,12,6.5,0,,IRAN:  KERMAN,28.412,59.18,140,7,1,0,0,25,1,0,3,0,3,1800,4,7,0,25,0,0,1800
2011,1,5,16,32,24,24,4.5,0,,IRAN:  FARS PROVINCE,30.16,51.62,140,0,0,0,0,16,1,0,2,0,0,0,0,0,0,16,0,0,0
2012,1,19,12,35,51,8,5.3,0,,IRAN:  KHORASAN-E-RAZAVI,36.288,58.835,140,0,0,0,0,238,3,0,1,0,0,0,2,0,0,238,0,0,0
2012,2,27,18,48,55,10,5.2,0,,IRAN:  RAVAR,31.428,56.778,140,0,0,0,0,6,1,0,1,0,0,0,2,0,0,6,0,0,0
2012,5,3,10,9,35,10,5.4,0,,"IRAN:  MOURMOURI, ABDANAN, DEHLORAN",32.747,47.726,140,0,0,0,0,8,1,0,2,0,0,0,3,0,0,8,0,0,0
2012,8,11,12,23,18,11,6.5,0,,"IRAN:  AHAR, HARIS, VARZAGAN",38.329,46.826,140,306,3,0,0,3000,4,0,4,0,4,0,4,306,0,3000,0,0,0
2012,12,5,17,8,13,14,5.7,0,,IRAN:  KHORASAN PROVINCE,33.506,59.571,140,8,1,0,0,12,1,0,1,0,0,0,1,8,0,12,0,0,0
2013,4,9,11,52,49,12,6.3,0,,"IRAN:  BUSHEHR PROVINCE:  SHANBE, KAKI, SENA",28.428,51.593,140,37,1,0,0,850,3,0,2,0,3,700,3,37,0,850,0,0,700
2013,4,16,10,44,20,80,7.7,0,,IRAN; PAKISTAN:  MASHKAL,28.033,61.996,140,40,1,0,0,300,3,0,3,0,0,1000,3,40,0,300,0,0,1000
2013,5,11,2,8,8,15,6.1,0,,IRAN:  HORMOZGAN: BASHAGARD,26.56,57.77,140,2,1,0,0,20,1,0,2,0,0,0,3,2,0,20,0,0,0
2013,11,28,13,51,51,4,5.7,4,,IRAN:  BORAZJAN,29.275,51.313,140,8,1,0,0,200,3,0,2,250,3,0,1,8,0,200,0,250,0
2014,1,2,3,13,57,8,5.3,0,,IRAN:  BASTAK,27.15,54.448,140,1,1,0,0,30,1,0,1,0,0,0,3,1,0,30,0,0,0
2014,2,2,14,26,51,10,5.3,0,,IRAN:  GOHARAN,26.589,57.741,140,0,0,0,0,0,0,0,1,0,0,0,3,0,0,0,0,0,0
2014,8,18,2,32,2,6,6.2,3,,IRAN:  ILAM PROVINCE:  ABDANAN,32.663,47.673,140,0,0,0,0,330,2,0,1,2700,4,17000,4,0,0,330,0,2700,17000
2017,1,6,2,33,29,10,5.0,0,,IRAN:  KHONJ,28.2,53.107,140,4,1,0,0,4,1,0,1,0,0,0,0,4,0,4,0,0,0
2017,4,5,6,9,12,13,6.1,0,,IRAN:  SEFID SANG,35.8,60.436,140,2,1,0,0,11,1,0,1,0,0,0,1,2,0,11,0,0,0
2017,5,13,18,1,0,17,5.8,0,,IRAN: KHORASAN,37.777,57.195,140,2,1,0,0,400,3,0,2,0,0,0,4,2,0,400,0,0,0
2017,11,12,18,18,17,23,7.3,0,,IRAN: KERMANSHAH; IRAQ: KURDISTAN,34.886,45.941,140,630,3,0,0,12900,4,750,4,15500,4,14500,4,630,0,12900,750,15500,14500
2017,12,1,2,32,46,10,6.0,0,,IRAN:  KERMAN,30.765,57.331,140,0,0,0,0,51,1,0,1,0,2,0,1,0,0,51,0,0,0
2017,12,20,19,57,37,10,4.9,0,,IRAN:  ALBORZ,35.654,50.949,140,2,1,0,0,115,3,0,0,0,0,0,0,2,0,115,0,0,0
2017,12,27,21,24,33,10,4.0,0,,"IRAN: ALBORZ, TEHRAN",35.692,50.9,140,1,1,0,0,57,2,0,0,0,0,0,0,1,0,57,0,0,0
